City_ID,City,Cloudiness,Country,Date,Humidity,Lat,Lng,Max Temp,Wind Speed
0,hobart,75,AU,1525275000,67,-42.88,147.33,57.2,8.05
1,port alfred,12,ZA,1525277057,86,-33.59,26.89,69.54,18.48
2,ancud,92,CL,1525277057,98,-41.87,-73.83,52.62,14.23
3,dzhebariki-khaya,80,RU,1525277058,65,62.22,135.8,35.97,7.85
4,luoyang,0,CN,1525277058,79,34.66,112.42,55.32,1.81
5,vaini,0,IN,1525277058,57,15.34,74.49,81.51,6.17
6,castro,92,CL,1525277059,98,-42.48,-73.76,51.27,12.77
7,puerto leguizamo,92,CO,1525277059,100,-0.19,-74.78,72.15,2.71
8,east london,40,ZA,1525273200,88,-33.02,27.91,66.2,18.34
9,muisne,48,EC,1525277060,72,0.61,-80.02,83.22,4.05
10,itapuranga,0,BR,1525277060,56,-15.56,-49.95,83.67,7.96
11,goderich,64,CA,1525277061,63,43.74,-81.71,64.14,19.48
12,puerto ayora,20,EC,1525273200,78,-0.74,-90.35,80.6,12.75
13,qaanaaq,0,GL,1525277061,91,77.48,-69.36,2.76,4.38
14,bandrele,0,YT,1525275000,74,-12.91,45.19,80.6,4.7
15,hithadhoo,64,MV,1525277062,100,-0.6,73.08,83.94,14.12
16,chuy,80,UY,1525277062,88,-33.69,-53.46,70.89,15.46
17,khatanga,56,RU,1525277062,87,71.98,102.47,8.43,10.54
18,albany,40,US,1525276260,21,42.65,-73.75,82.4,4.83
19,kargasok,88,RU,1525277063,61,59.06,80.87,40.56,4.94
20,bethel,90,US,1525272780,92,60.79,-161.76,28.4,5.82
21,hasaki,75,JP,1525275000,100,35.73,140.83,66.2,16.11
22,jamestown,68,AU,1525276939,37,-33.21,138.6,62.07,9.42
23,rikitea,100,PF,1525277064,100,-23.12,-134.97,73.68,12.21
24,bluff,48,AU,1525277065,74,-23.58,149.07,69.09,6.73
25,kenai,1,US,1525272960,86,60.55,-151.26,35.6,10.29
26,hebi,0,CN,1525277065,71,35.75,114.29,49.56,3.94
27,diego de almagro,8,CL,1525277066,87,-26.39,-70.05,66.3,1.7
28,mount pleasant,90,US,1525274100,83,33.16,-94.97,75.2,6.93
29,ushuaia,40,AR,1525273200,75,-54.81,-68.31,46.4,13.87
30,brae,75,GB,1525274400,81,60.4,-1.35,46.4,13.87
31,faya,20,SA,1525273200,57,18.39,42.45,77.0,13.87
32,izumo,75,JP,1525273200,88,35.37,132.75,66.2,13.87
33,hilo,90,US,1525272960,94,19.71,-155.08,71.6,3.36
34,penzance,20,GB,1525274400,71,50.12,-5.53,53.6,19.46
35,kapaa,1,US,1525272960,77,22.08,-159.32,68.0,9.17
36,atuona,0,PF,1525277068,100,-9.8,-139.03,79.71,8.63
37,coihaique,75,CL,1525273200,81,-45.58,-72.07,46.4,3.36
38,provideniya,64,RU,1525277069,100,64.42,-173.23,24.81,2.26
39,souillac,0,FR,1525275000,58,45.6,-0.6,59.0,12.75
40,tasiilaq,90,GL,1525272600,79,65.61,-37.64,26.6,11.41
41,barrow,36,AR,1525277070,74,-38.31,-60.23,60.99,8.97
42,busselton,64,AU,1525277070,100,-33.64,115.35,62.34,19.93
43,chokurdakh,92,RU,1525277070,92,70.62,147.9,32.19,17.69
44,luderitz,0,NA,1525277071,82,-26.65,15.16,65.67,15.23
45,bilibino,36,RU,1525277071,97,68.06,166.44,15.36,2.15
46,daru,8,SL,1525277071,71,7.99,-10.85,89.52,5.73
47,yerbogachen,92,RU,1525277071,99,61.28,108.01,43.17,6.29
48,mataura,88,NZ,1525277072,94,-46.19,168.86,48.03,3.15
49,lavrentiya,80,RU,1525277072,100,65.58,-170.99,20.49,12.88
50,honiara,75,SB,1525273200,100,-9.43,159.96,75.2,2.24
51,hermanus,88,ZA,1525277072,81,-34.42,19.24,60.27,6.96
52,narsaq,75,GL,1525272600,68,60.91,-46.05,30.2,5.82
53,gallup,90,US,1525276380,81,35.53,-108.74,42.8,6.93
54,pyaozerskiy,92,RU,1525277073,67,65.83,31.17,37.95,10.2
55,sao felix do xingu,88,BR,1525277074,91,-6.64,-51.99,78.45,2.59
56,guerrero negro,92,MX,1525277074,88,27.97,-114.04,57.84,6.73
57,maumere,8,ID,1525277074,100,-8.63,122.22,82.77,6.62
58,tarakan,48,ID,1525277074,100,3.3,117.63,78.36,2.37
59,nome,75,US,1525274100,69,30.04,-94.42,80.6,10.29
60,lasa,0,CY,1525275000,61,34.92,32.53,78.8,3.36
61,talcahuano,90,CL,1525273200,87,-36.72,-73.12,57.2,9.17
62,jinchang,0,CN,1525277095,37,38.52,102.19,47.49,6.73
63,lubbecke,75,DE,1525274400,44,52.3,8.62,62.6,8.05
64,sompeta,0,IN,1525277095,83,18.93,84.6,79.08,5.39
65,lockhart,40,AU,1525273200,54,-35.22,146.72,59.0,8.05
66,esperance,75,TT,1525273200,66,10.24,-61.45,86.0,16.11
67,mwinilunga,56,ZM,1525277096,49,-11.73,24.43,75.39,3.38
68,bay city,75,US,1525275720,43,43.59,-83.89,75.2,21.92
69,dunedin,56,NZ,1525277097,87,-45.87,170.5,35.79,2.82
70,lagoa,20,PT,1525275000,59,37.14,-8.45,62.6,12.75
71,hinton,0,CA,1525276820,59,53.4,-117.57,45.6,4.38
72,yellowknife,90,CA,1525273200,74,62.45,-114.38,35.6,4.7
73,san quintin,20,PH,1525273200,74,17.54,120.52,84.2,2.24
74,lincoln,20,GB,1525274400,47,53.23,-0.54,55.4,19.46
75,punta arenas,75,CL,1525273200,81,-53.16,-70.91,46.4,8.05
76,nanortalik,32,GL,1525277099,100,60.14,-45.24,27.15,24.52
77,severo-kurilsk,36,RU,1525277099,100,50.68,156.12,31.38,8.08
78,kudahuvadhoo,92,MV,1525277099,100,2.67,72.89,85.11,16.24
79,nemuro,92,JP,1525277075,98,43.32,145.57,39.57,15.01
80,lilburn,1,US,1525275660,50,33.89,-84.14,75.2,4.7
81,grand-santi,88,GF,1525277100,85,4.27,-54.38,79.53,3.38
82,vila franca do campo,20,PT,1525275000,59,37.72,-25.43,64.4,17.22
83,flinders,24,AU,1525273200,87,-34.58,150.85,57.2,6.93
84,geraldton,90,CA,1525274580,91,49.72,-86.95,32.0,5.82
85,georgetown,75,GY,1525273200,66,6.8,-58.16,87.8,11.41
86,sur,0,OM,1525277102,73,22.57,59.53,88.17,7.52
87,saint-philippe,75,CA,1525274100,46,45.36,-73.48,75.2,18.34
88,balikpapan,8,ID,1525277103,100,-1.24,116.86,82.05,4.94
89,lebu,8,ET,1525277103,82,8.96,38.73,64.77,2.59
90,sinnamary,80,GF,1525277103,98,5.38,-52.96,79.71,10.87
91,avarua,20,CK,1525273200,88,-21.21,-159.78,77.0,6.93
92,altay,92,CN,1525277104,72,47.83,88.13,37.14,7.29
93,marsh harbour,64,BS,1525277104,100,26.54,-77.06,75.21,24.52
94,frontera,20,MX,1525272480,62,18.53,-92.64,86.0,9.17
95,belmonte,80,PT,1525277105,67,40.36,-7.35,57.75,3.94
96,sao filipe,8,CV,1525277105,88,14.9,-24.5,73.32,19.82
97,vardo,1,US,1525275300,28,39.62,-77.74,82.4,9.17
98,gravdal,75,NO,1525274400,53,59.79,5.78,51.8,20.8
99,nabire,80,ID,1525277106,99,-3.36,135.5,69.72,2.15
100,bilma,0,NE,1525277106,10,18.69,12.92,109.23,12.33
101,los llanos de aridane,75,ES,1525275000,72,28.66,-17.92,68.0,6.93
102,salta,75,AR,1525273200,78,-24.79,-65.41,75.2,2.24
103,butaritari,24,KI,1525277107,100,3.07,172.79,83.04,8.41
104,mobaye,0,CF,1525277107,65,4.33,21.18,86.82,4.16
105,kuytun,0,RU,1525277107,56,54.34,101.51,44.52,5.17
106,bredasdorp,80,ZA,1525277108,96,-34.53,20.04,63.87,18.25
107,pierre,1,US,1525272780,76,44.37,-100.35,53.6,3.36
108,aasiaat,56,GL,1525277108,100,68.71,-52.87,18.15,16.46
109,thinadhoo,68,MV,1525277108,95,0.53,72.93,86.37,15.79
110,new norfolk,75,AU,1525275000,67,-42.78,147.06,57.2,8.05
111,ribeira grande,40,PT,1525275000,68,38.52,-28.7,64.4,12.75
112,northam,20,GB,1525274400,50,51.04,-4.21,55.4,16.11
113,burgeo,92,CA,1525277110,97,47.61,-57.61,37.32,14.79
114,victoria,90,BN,1525275000,94,5.28,115.24,77.0,1.12
115,lorengau,48,PG,1525277111,100,-2.02,147.27,82.32,5.06
116,port elizabeth,1,US,1525276500,23,39.31,-74.98,87.8,9.17
117,nisia floresta,40,BR,1525273200,55,-6.09,-35.21,87.8,16.11
118,constitucion,40,MX,1525272180,38,23.99,-104.67,64.4,6.93
119,sambava,76,MG,1525277112,100,-14.27,50.17,78.9,18.48
120,fuyang,0,CN,1525277112,74,32.89,115.81,56.04,3.04
121,taltal,0,CL,1525277112,86,-25.41,-70.49,65.94,1.7
122,kahului,1,US,1525272960,94,20.89,-156.47,71.6,4.83
123,pleasant point,44,NZ,1525277132,100,-44.26,171.13,39.48,2.37
124,guamuchil,88,MX,1525277132,75,25.47,-108.1,73.86,2.37
125,ipatovo,0,RU,1525277132,37,45.72,42.92,80.34,5.5
126,tiznit,0,MA,1525277133,80,29.7,-9.73,63.69,11.65
127,bani walid,0,LY,1525277133,16,31.76,14.0,81.6,21.5
128,carnarvon,8,ZA,1525277133,14,-30.97,22.13,68.91,15.01
129,birjand,0,IR,1525273200,19,32.86,59.22,69.8,13.87
130,cape town,75,ZA,1525273200,82,-33.93,18.42,62.6,10.29
131,marathon,90,CA,1525273200,80,48.72,-86.38,35.6,10.29
132,caceres,12,CO,1525277135,68,5.53,-74.53,78.63,2.71
133,kathu,0,ZA,1525277136,35,-27.7,23.05,75.39,8.97
134,kodiak,75,US,1525275480,83,39.95,-94.76,75.2,14.99
135,mbandaka,12,CD,1525277137,76,0.05,18.26,85.74,2.26
136,verkhoyansk,76,RU,1525277137,80,67.55,133.39,39.66,8.08
137,sovetskiy,92,RU,1525277137,90,56.76,48.47,50.91,9.19
138,dryden,90,CA,1525273200,93,49.79,-92.84,37.4,5.82
139,jaciara,0,BR,1525277138,53,-15.95,-54.98,88.71,5.39
140,mastic beach,1,US,1525276560,34,40.77,-72.85,80.6,9.17
141,madang,44,PG,1525277138,100,-5.21,145.81,75.21,4.72
142,bambous virieux,40,MU,1525273200,61,-20.34,57.76,77.0,14.99
143,qaqortoq,75,GL,1525272600,68,60.72,-46.03,30.2,5.82
144,mar del plata,64,AR,1525277139,59,-46.43,-67.52,54.24,9.86
145,olinda,40,EC,1525273200,58,-2.03,-79.75,86.0,6.93
146,tawau,75,MY,1525273200,94,4.26,117.89,77.0,1.81
147,lusk,40,IE,1525275000,62,53.53,-6.17,53.6,20.8
148,fukue,75,JP,1525275000,94,35.03,136.69,68.0,16.11
149,beloha,76,MG,1525277141,37,-25.17,45.06,82.41,9.42
150,saskylakh,44,RU,1525277141,81,71.97,114.09,7.89,12.77
151,bulgan,76,MN,1525277141,61,48.81,103.53,49.92,4.05
152,dmitriyevka,56,GE,1525277142,83,43.08,41.0,60.99,1.59
153,ukiah,1,US,1525272960,81,39.15,-123.21,48.2,2.04
154,cayenne,75,GF,1525275000,74,4.94,-52.33,84.2,13.87
155,slave lake,90,CA,1525273200,59,55.28,-114.77,42.8,3.36
156,arraial do cabo,20,BR,1525273200,74,-22.97,-42.02,86.0,11.41
157,sinegorskiy,0,RU,1525277143,32,48.01,40.84,77.37,10.65
158,dagana,0,MR,1525273200,11,16.52,-15.51,104.0,2.24
159,san cristobal,75,EC,1525273200,76,-0.39,-78.55,57.2,9.17
160,hede,75,SE,1525276200,87,60.45,15.49,48.2,10.29
161,santa ana,0,SV,1525272600,73,13.99,-89.56,87.8,6.93
162,nikolskoye,40,RU,1525275000,71,59.7,30.79,50.0,15.66
163,hamilton,20,BM,1525272900,64,32.3,-64.78,71.6,10.29
164,epernay,75,FR,1525275000,67,45.45,5.88,60.8,9.17
165,port hedland,12,AU,1525275000,78,-20.31,118.58,73.4,8.05
166,tazovskiy,48,RU,1525277164,81,67.47,78.7,10.32,17.69
167,banos,0,FR,1525275000,51,43.74,-0.62,60.8,12.75
168,kaitangata,68,NZ,1525277164,77,-46.28,169.85,46.86,3.6
169,mahebourg,40,MU,1525273200,61,-20.41,57.7,77.0,14.99
170,miramar,0,CR,1525273200,47,10.09,-84.73,78.8,17.22
171,airai,56,TL,1525277165,92,-8.93,125.41,68.55,2.15
172,aswan,0,EG,1525277165,15,24.09,32.9,102.66,7.4
173,puerto colombia,40,CO,1525273200,74,10.99,-74.96,86.0,6.93
174,linhares,0,BR,1525277166,59,-19.38,-40.06,85.56,6.73
175,gonbad-e qabus,56,IR,1525277166,64,37.25,55.17,68.37,2.71
176,pangkalanbuun,12,ID,1525277168,89,-2.68,111.62,76.56,4.38
177,mount isa,0,AU,1525275000,62,-20.73,139.49,59.0,5.95
178,vung tau,40,VN,1525275000,74,10.35,107.08,86.0,6.93
179,palana,92,RU,1525277169,93,59.08,159.95,26.97,4.83
180,sao jose da coroa grande,92,BR,1525277169,100,-8.9,-35.15,78.09,7.18
181,saldanha,88,PT,1525277169,57,41.42,-6.55,55.77,6.29
182,dingle,20,PH,1525277169,91,11.0,122.67,78.18,4.16
183,sitka,80,US,1525277170,45,37.17,-99.65,78.36,18.92
184,samarai,88,PG,1525277170,100,-10.62,150.67,80.7,11.1
185,ambulu,8,ID,1525277170,100,-8.35,113.61,77.64,5.39
186,harper,90,US,1525274100,78,30.3,-99.24,77.0,11.41
187,klaksvik,36,FO,1525276200,99,62.23,-6.59,46.4,5.82
188,codrington,12,AU,1525277171,92,-28.95,153.24,53.34,2.48
189,katsuura,68,JP,1525277171,94,33.93,134.5,63.24,3.6
190,santa teresa,20,VE,1525273200,74,10.26,-66.69,84.2,6.93
191,baiyin,0,CN,1525273200,46,36.55,104.13,50.0,4.47
192,lazaro cardenas,75,MX,1525272480,24,28.39,-105.62,71.6,17.22
193,surami,0,GE,1525277193,57,42.02,43.56,63.42,4.72
194,talnakh,76,RU,1525277175,89,69.49,88.39,16.89,9.64
195,green river,90,US,1525272840,86,41.53,-109.47,32.0,8.05
196,fortuna,40,ES,1525275000,24,38.18,-1.13,75.2,12.75
197,medvedka,92,RU,1525277175,45,61.17,46.39,50.19,7.74
198,saint-joseph,90,FR,1525275000,63,43.56,6.97,68.0,2.24
199,shubarshi,0,KZ,1525277176,50,48.59,57.19,71.07,7.96
200,riyadh,40,SA,1525273200,14,24.63,46.72,91.4,9.17
201,sorland,0,NO,1525274400,75,67.67,12.69,50.0,5.82
202,balkhash,0,KZ,1525277177,85,46.84,74.98,51.63,15.46
203,monrovia,40,LR,1525275000,62,6.33,-10.8,89.6,13.87
204,nigel,0,ZA,1525277178,34,-26.43,28.47,66.66,8.86
205,kaduqli,0,SD,1525277178,22,11.01,29.72,99.51,4.16
206,lata,88,IN,1525277178,100,30.78,78.62,49.74,2.04
207,yairipok,0,IN,1525277179,94,24.67,94.07,64.86,1.36
208,cockburn town,56,TC,1525277179,100,21.46,-71.14,78.63,15.01
209,viedma,90,AR,1525274220,76,-40.81,-62.99,57.2,10.29
210,gazanjyk,0,TM,1525277184,21,39.24,55.52,71.07,17.02
211,mabaruma,100,GY,1525277187,90,8.2,-59.78,78.9,8.75
212,muros,90,ES,1525275000,93,42.77,-9.06,51.8,8.05
213,teya,75,MX,1525272660,79,21.05,-89.07,84.2,12.75
214,dolni bousov,0,CZ,1525273200,46,50.44,15.13,77.0,8.05
215,kastamonu,68,TR,1525277193,67,41.38,33.78,63.42,0.58
216,fairbanks,90,US,1525274580,92,64.84,-147.72,30.2,4.7
217,anchorage,75,US,1525273860,69,61.22,-149.89,37.4,14.99
218,karratha,8,AU,1525277194,68,-20.74,116.85,68.73,8.08
219,ponta do sol,0,BR,1525277195,52,-20.63,-46.0,79.35,7.63
220,aranos,36,NA,1525277195,22,-24.14,19.11,80.34,8.97
221,nuevo progreso,90,US,1525274100,62,26.05,-97.95,86.0,18.34
222,tautira,68,PF,1525275000,88,-17.73,-149.15,75.2,2.24
223,svetlaya,88,RU,1525277196,96,46.54,138.33,38.13,16.58
224,erzin,20,TR,1525276200,45,36.95,36.2,82.4,6.93
225,manono,48,CD,1525277197,96,-7.3,27.4,74.94,5.95
226,dikson,76,RU,1525277197,94,73.51,80.55,18.33,16.46
227,ryotsu,92,JP,1525277197,78,38.08,138.43,63.51,10.31
228,mindelo,75,PT,1525275000,67,41.31,-8.72,60.8,8.05
229,nikko,100,JP,1525277198,100,36.75,139.62,60.0,8.63
230,barcelos,75,PT,1525275000,67,41.53,-8.62,60.8,8.05
231,roald,0,NO,1525274400,43,62.58,6.12,57.2,12.75
232,grand gaube,40,MU,1525273200,61,-20.01,57.66,77.0,14.99
233,sorong,44,ID,1525277201,100,-0.86,131.25,83.04,9.86
234,san vicente,0,SV,1525272600,78,13.64,-88.78,89.6,6.93
235,saint andrews,44,NZ,1525277202,100,-44.53,171.19,39.48,2.37
236,kyaikkami,88,MM,1525277202,91,16.08,97.57,78.9,5.95
237,laguna,75,MX,1525272060,55,27.52,-110.01,66.2,0.92
238,pevek,0,RU,1525277203,61,69.7,170.27,4.74,2.59
239,scottsbluff,90,US,1525276380,100,41.87,-103.67,46.4,4.72
240,saint george,20,GR,1525276200,49,39.45,22.34,73.4,8.05
241,maningrida,64,AU,1525277203,81,-12.05,134.23,81.87,11.54
242,longyearbyen,40,NO,1525272600,80,78.22,15.63,33.8,3.36
243,lompoc,90,US,1525275300,87,34.64,-120.46,55.4,6.93
244,vestmannaeyjar,20,IS,1525273200,69,63.44,-20.27,39.2,8.05
245,pringsewu,20,ID,1525277205,75,-5.36,104.98,76.74,2.71
246,sulangan,56,PH,1525277206,100,11.14,123.72,83.04,8.63
247,tuatapere,44,NZ,1525277206,100,-46.13,167.69,47.49,5.61
248,san patricio,8,PY,1525277206,52,-26.98,-56.83,88.8,4.94
249,tuktoyaktuk,90,CA,1525273740,85,69.44,-133.03,12.2,2.24
250,aginskoye,0,RU,1525277207,57,51.11,114.54,38.4,6.96
251,ngunguru,0,NZ,1525277207,100,-35.62,174.5,63.15,18.14
252,cidreira,80,BR,1525277208,80,-30.17,-50.22,73.68,16.91
253,jangaon,0,IN,1525277208,60,17.72,79.16,82.14,6.51
254,vicente guerrero,40,MX,1525272240,60,16.93,-96.7,69.8,3.04
255,meulaboh,92,ID,1525277209,100,4.14,96.13,81.15,3.94
256,monterey,90,US,1525275300,71,36.6,-121.89,53.6,2.48
257,gibara,40,CU,1525272660,58,21.11,-76.13,84.2,8.05
258,portland,75,US,1525276380,71,45.52,-122.67,53.6,2.59
259,whithorn,20,JM,1525273200,66,18.26,-78.04,84.2,9.17
260,cabo san lucas,8,MX,1525277047,100,22.89,-109.91,69.99,11.21
261,innisfail,75,CA,1525273200,56,52.02,-113.95,44.6,6.93
262,xinmin,0,CN,1525275000,54,42.0,122.83,53.6,15.66
263,inskoy,80,RU,1525277211,75,54.43,86.44,40.92,9.53
264,mango,75,IT,1525274400,82,44.69,8.15,59.0,6.93
265,vao,76,EE,1525277213,70,59.1,26.19,51.72,10.98
266,atar,0,MR,1525277213,18,20.52,-13.05,88.98,7.96
267,la asuncion,75,EC,1525273200,77,-1.64,-78.74,60.8,3.36
268,stuttgart,0,DE,1525274400,51,48.78,9.18,60.8,9.17
269,vohibinany,92,MG,1525277223,79,-17.35,49.03,72.06,4.38
270,niort,90,FR,1525275000,93,46.32,-0.46,59.0,14.99
271,bathsheba,20,BB,1525273200,66,13.22,-59.52,86.0,18.34
272,nalut,0,LY,1525277224,27,31.86,10.98,70.8,20.27
273,taboga,12,NG,1525277225,62,6.37,5.65,91.77,3.71
274,san ramon,75,NI,1525273200,83,12.92,-85.84,69.8,11.41
275,hutchinson,75,US,1525274160,73,38.06,-97.93,77.0,21.92
276,buchanan,75,LR,1525276800,62,5.88,-10.05,89.6,11.41
277,pacific grove,90,US,1525275300,71,36.62,-121.92,53.6,2.48
278,ballina,75,IE,1525275000,24,54.11,-9.15,57.2,25.28
279,oistins,20,BB,1525273200,66,13.07,-59.53,86.0,18.34
280,bandarbeyla,76,SO,1525277227,100,9.49,50.81,78.72,13.78
281,kloulklubed,75,PW,1525272660,83,7.04,134.26,82.4,9.64
282,namibe,0,AO,1525277228,89,-15.19,12.15,81.87,13.11
283,dongsheng,92,CN,1525277228,68,29.72,112.52,68.73,11.43
284,iqaluit,90,CA,1525273200,72,63.75,-68.52,12.2,16.11
285,nishihara,75,JP,1525275240,100,35.74,139.53,68.0,23.04
286,half moon bay,90,US,1525275600,81,37.46,-122.43,55.4,9.17
287,chapais,90,CA,1525273200,93,49.78,-74.86,37.4,5.82
288,rio gallegos,0,AR,1525273200,52,-51.62,-69.22,44.6,10.29
289,aksarka,20,RU,1525277232,82,66.56,67.8,15.27,9.42
290,bellevue,20,US,1525274100,81,47.61,-122.19,50.0,3.71
291,razole,8,IN,1525277235,95,16.48,81.84,86.01,10.31
292,birao,0,CF,1525277235,16,10.3,22.78,104.64,6.51
293,lumby,90,CA,1525273200,54,50.25,-118.97,53.6,2.24
294,yumen,0,CN,1525277236,21,40.29,97.04,55.86,9.42
295,plettenberg bay,0,ZA,1525277236,85,-34.05,23.37,65.4,7.96
296,leningradskiy,64,RU,1525277236,82,69.38,178.42,9.96,10.76
297,partsa,0,RU,1525277236,52,54.37,42.86,77.01,8.97
298,sparta,20,GR,1525276200,41,37.08,22.43,78.8,3.27
299,naples,40,US,1525272780,58,26.14,-81.79,82.4,12.75
300,moerai,12,PF,1525277237,100,-22.43,-151.33,76.47,8.41
301,gorontalo,56,ID,1525277237,94,0.54,123.06,75.12,2.04
302,chimbote,12,PE,1525277238,85,-9.08,-78.59,70.35,5.17
303,mount gambier,80,AU,1525277238,52,-37.83,140.78,55.86,5.39
304,rocha,76,UY,1525277238,77,-34.48,-54.34,68.1,11.99
305,redan,0,ZA,1525277238,34,-26.62,27.97,66.66,8.86
306,cullman,0,US,1525275300,47,34.17,-86.84,80.6,4.5
307,gat,0,SN,1525273200,15,14.69,-16.54,105.8,6.17
308,sechura,32,PE,1525277239,77,-5.56,-80.82,74.4,6.85
309,byron bay,75,AU,1525275000,93,-28.65,153.62,62.6,2.24
310,barroquinha,40,BR,1525273200,74,-3.02,-41.13,86.0,6.93
311,sao joao da barra,40,BR,1525273200,58,-21.64,-41.05,82.4,5.82
312,rognan,20,NO,1525274400,53,67.1,15.4,50.0,17.22
313,juegang,24,CN,1525277241,93,32.31,121.18,55.32,9.42
314,pisco,12,PE,1525273200,73,-13.71,-76.2,71.6,5.82
315,biltine,0,TD,1525277242,13,14.53,20.93,105.27,4.38
316,lebowakgomo,20,ZA,1525273200,56,-24.3,29.54,68.0,2.24
317,tambovka,0,UA,1525277242,26,46.93,35.45,81.24,6.85
318,tiksi,88,RU,1525277242,87,71.64,128.87,19.68,11.54
319,ajaccio,90,FR,1525275000,82,41.93,8.74,60.8,1.12
320,kangaatsiaq,64,GL,1525277243,100,68.31,-53.46,16.62,23.51
321,amazar,0,RU,1525277243,50,53.86,120.88,38.31,4.27
322,hovd,0,NO,1525274400,47,63.83,10.7,57.2,3.36
323,axim,0,GH,1525277245,94,4.87,-2.24,84.39,15.46
324,sal rei,40,CV,1525273200,64,16.18,-22.92,77.0,20.8
325,richards bay,0,ZA,1525277248,73,-28.77,32.06,74.67,7.4
326,nizwa,0,OM,1525277249,15,22.93,57.53,92.13,5.39
327,ibotirama,0,BR,1525277254,66,-12.18,-43.22,85.47,7.18
328,cherskiy,0,RU,1525277254,50,68.75,161.3,8.7,5.28
329,ilulissat,75,GL,1525272600,72,69.22,-51.1,17.6,8.05
330,anshun,92,CN,1525277257,93,26.25,105.93,60.54,4.72
331,jabinyanah,40,TN,1525273200,82,35.03,10.91,59.0,12.75
332,valparaiso,75,US,1525275900,29,41.47,-87.06,80.6,23.04
333,mamallapuram,20,IN,1525275000,84,12.63,80.17,87.8,12.75
334,puyang,0,CN,1525277258,55,35.76,115.02,55.77,7.96
335,atambua,56,ID,1525277258,100,-9.11,124.89,77.91,6.85
336,diu,0,IN,1525277258,58,20.71,70.98,85.2,11.43
337,piacabucu,64,BR,1525277259,82,-10.41,-36.43,81.96,10.2
338,katobu,32,ID,1525277259,100,-4.94,122.53,81.06,3.38
339,khorramshahr,40,IR,1525273200,26,30.43,48.18,93.2,4.7
340,beringovskiy,64,RU,1525277259,100,63.05,179.32,20.04,2.04
341,tromso,20,NO,1525274400,79,69.65,18.96,46.4,14.99
342,mahajanga,20,MG,1525273200,54,-15.72,46.32,84.2,6.93
343,adwa,56,ET,1525277260,23,14.16,38.9,79.98,3.83
344,otradnoye,40,RU,1525275000,71,59.77,30.8,50.0,15.66
345,tatvan,48,TR,1525277263,61,38.5,42.28,59.64,1.92
346,touros,88,BR,1525277263,72,-5.2,-35.46,84.66,12.66
347,masuda,75,JP,1525272900,88,34.68,131.85,69.8,9.17
348,leh,36,IN,1525277266,87,34.16,77.58,14.46,1.36
349,hirara,32,JP,1525277266,96,24.8,125.28,77.37,7.63
350,sangar,92,RU,1525277266,94,63.92,127.47,38.4,3.15
351,uray,76,RU,1525277266,58,60.13,64.8,39.57,6.51
352,hoquiam,1,US,1525272780,100,46.98,-123.89,46.4,3.36
353,kano,0,NG,1525277267,36,11.99,8.53,101.04,4.61
354,forio,0,IT,1525276200,36,40.73,13.86,80.6,12.75
355,riverton,90,US,1525274100,75,43.02,-108.38,42.8,3.36
356,zhangye,0,CN,1525277268,47,38.94,100.46,51.18,7.18
357,tezu,48,IN,1525277268,70,27.93,96.16,64.77,1.59
358,neyshabur,0,IR,1525277268,31,36.21,58.79,55.77,10.76
359,kruisfontein,0,ZA,1525277268,81,-34.0,24.73,67.29,18.92
360,deputatskiy,80,RU,1525277269,100,69.3,139.9,36.24,10.2
361,norman wells,90,CA,1525274820,65,65.28,-126.83,41.0,4.7
362,komsomolskiy,0,RU,1525277270,84,67.55,63.78,9.24,6.96
363,nioro,0,GM,1525277271,22,13.79,-15.05,103.65,7.96
364,thompson,75,CA,1525273200,58,55.74,-97.86,41.0,10.29
365,ostrovnoy,0,RU,1525277272,94,68.05,39.51,33.72,7.18
366,hami,36,CN,1525277272,27,42.84,93.51,65.22,7.4
367,encheng,92,CN,1525277272,98,22.74,107.09,71.16,2.37
368,mangrol,32,IN,1525277273,38,25.33,76.51,85.83,5.17
369,tacoronte,75,ES,1525275000,82,28.48,-16.41,64.4,12.75
370,sherlovaya gora,0,RU,1525277273,69,50.53,116.31,34.62,2.82
371,mpwapwa,32,TZ,1525277274,89,-6.35,36.49,68.28,4.72
372,tefe,40,BR,1525273200,78,-3.35,-64.71,82.4,3.36
373,north platte,1,US,1525276380,58,41.12,-100.77,57.2,13.87
374,torbay,75,CA,1525274760,71,47.66,-52.73,51.8,14.99
375,iwanai,92,JP,1525277275,98,42.97,140.51,48.12,8.19
376,tilichiki,48,RU,1525277275,83,60.47,166.1,21.12,3.15
377,kununurra,56,AU,1525275000,83,-15.77,128.74,69.8,3.94
378,bundaberg,20,AU,1525277276,100,-24.87,152.35,73.77,11.65
379,paamiut,36,GL,1525277276,100,61.99,-49.67,24.72,24.4
380,ejea de los caballeros,75,ES,1525275000,39,42.13,-1.14,68.0,14.99
381,bose,75,IT,1525276200,76,45.46,8.01,57.2,3.36
382,port lincoln,92,AU,1525277281,100,-34.72,135.86,60.45,15.35
383,ayan,44,TR,1525277283,71,40.67,33.6,60.54,2.37
384,coahuayana,8,MX,1525277284,55,18.62,-100.35,75.84,2.93
385,batsfjord,20,NO,1525272600,59,70.63,29.72,41.0,5.82
386,aktau,0,KZ,1525275000,52,43.65,51.16,66.2,6.71
387,kant,0,KG,1525277289,82,42.89,74.85,31.74,2.26
388,porbandar,40,IN,1525273200,83,21.64,69.61,84.2,6.93
389,nongan,20,CN,1525273200,45,44.43,125.17,46.4,2.24
390,bauchi,68,NG,1525277290,100,10.31,9.85,72.6,3.6
391,salym,88,RU,1525277309,60,60.06,71.48,36.87,8.19
392,huanren,92,CN,1525277291,94,41.26,125.37,42.63,7.4
393,buala,36,SB,1525277291,100,-8.15,159.59,78.99,4.83
394,luanda,0,AO,1525277291,62,-8.83,13.24,91.14,8.41
395,sibu,75,MY,1525273200,88,2.29,111.83,77.0,5.82
396,camacha,40,PT,1525275000,72,33.08,-16.33,64.4,6.93
397,uberaba,0,BR,1525273200,28,-19.75,-47.94,80.6,9.17
398,knysna,20,ZA,1525273200,68,-34.04,23.05,64.4,5.82
399,ahipara,48,NZ,1525277294,100,-35.17,173.16,55.86,5.84
400,luganville,0,VU,1525277295,100,-15.51,167.18,78.36,12.88
401,gurupi,0,BR,1525277295,48,-11.73,-49.07,90.96,10.98
402,clyde river,20,CA,1525273200,78,70.47,-68.59,10.4,6.93
403,takoradi,0,GH,1525277297,90,4.89,-1.75,84.57,11.77
404,buffalo,75,US,1525276440,33,42.89,-78.88,78.8,27.51
405,barra do garcas,20,BR,1525273200,45,-15.89,-52.26,87.8,6.73
406,aitape,76,PG,1525277298,99,-3.15,142.36,80.16,3.71
407,jalu,76,LY,1525277298,19,29.03,21.55,97.26,11.88
408,marrakesh,40,MA,1525276800,28,31.63,-7.99,73.4,5.82
409,upernavik,36,GL,1525277299,100,72.79,-56.15,11.49,12.33
410,oussouye,0,SN,1525273200,40,12.49,-16.54,105.8,9.17
411,saint-georges,8,CA,1525277299,71,46.12,-70.67,63.6,8.19
412,dergachi,0,RU,1525277299,28,51.24,48.77,75.66,10.42
413,corinth,0,GR,1525276200,47,37.94,22.93,77.0,5.82
414,sao geraldo do araguaia,48,BR,1525277300,80,-6.4,-48.55,84.93,4.38
415,muhos,88,FI,1525274400,86,64.81,26.0,41.0,9.17
416,boa vista,75,BR,1525275600,88,2.82,-60.67,77.0,11.41
417,pahrump,90,US,1525276380,76,36.21,-115.98,53.6,3.36
418,acapulco,75,MX,1525272600,66,16.86,-99.88,86.0,9.17
419,minjur,20,IN,1525275000,84,13.28,80.26,87.8,12.75
420,boende,24,CD,1525277302,86,-0.28,20.88,81.42,0.92
421,abyek,40,IR,1525273200,26,36.04,50.53,69.8,6.93
422,kidal,0,ML,1525277303,10,18.44,1.41,99.87,9.75
423,abu dhabi,0,AE,1525273200,29,24.47,54.37,91.4,5.82
424,naze,40,NG,1525273200,56,5.43,7.07,93.2,4.7
425,houma,0,CN,1525277284,63,35.63,111.36,48.57,2.04
426,caravelas,0,BR,1525277304,99,-17.73,-39.27,79.71,9.08
427,xudat,0,AZ,1525277305,53,41.63,48.68,66.21,9.53
428,khandyga,80,RU,1525277305,65,62.65,135.58,35.97,7.85
429,kollo,0,NE,1525273200,4,13.34,2.32,111.2,10.29
430,khorixas,36,NA,1525277306,27,-20.37,14.96,85.2,1.92
431,arroio grande,88,BR,1525277306,96,-32.24,-53.09,72.33,18.59
432,selma,20,US,1525275360,71,36.57,-119.61,55.4,11.41
433,warrington,20,GB,1525274400,54,53.39,-2.59,53.6,18.34
434,seydi,0,NE,1525277307,28,13.34,7.75,104.73,6.62
435,ojinaga,88,US,1525277308,24,29.56,-104.41,76.74,10.31
436,salalah,20,OM,1525272600,70,17.01,54.1,86.0,9.17
437,pokhara,44,NP,1525277312,83,28.21,83.99,55.32,2.59
438,sovetskaya gavan,80,RU,1525277313,77,48.97,140.29,36.87,8.75
439,lokosovo,88,RU,1525277316,81,61.13,74.84,30.12,11.1
440,micheweni,80,TZ,1525277316,100,-4.97,39.83,80.25,20.27
441,dakar,0,SN,1525273200,73,14.69,-17.45,75.2,12.75
442,huarmey,8,PE,1525277320,62,-10.07,-78.15,75.39,3.94
443,mizdah,0,LY,1525277320,18,31.45,12.98,77.01,24.29
444,kharp,0,RU,1525277320,80,66.82,65.8,14.1,10.09
445,egvekinot,20,RU,1525277320,74,66.32,-179.17,7.17,0.13
446,petrolia,40,CA,1525275360,33,42.88,-82.15,75.2,9.17
447,novyy urengoy,56,RU,1525277322,80,66.08,76.63,10.68,15.79
448,lakatoro,0,VU,1525277322,96,-16.11,167.42,74.49,9.19
449,kotma,20,IN,1525277322,37,23.2,81.98,83.94,6.85
450,faqirwali,0,PK,1525277323,55,29.47,73.04,79.26,11.77
451,lethem,92,GY,1525277323,100,3.38,-59.8,75.21,8.97
452,saint-jean-de-maurienne,75,FR,1525275000,67,45.28,6.35,59.0,9.17
453,beirut,20,LB,1525273200,22,33.9,35.48,89.6,9.17
454,basco,40,US,1525275300,64,40.33,-91.2,75.2,18.34
455,port blair,36,IN,1525277098,100,11.67,92.75,84.3,7.4
456,santa isabel do rio negro,88,BR,1525277324,90,-0.41,-65.02,79.8,3.94
457,kirakira,76,SB,1525277325,100,-10.46,161.92,81.87,6.4
458,hearst,92,CA,1525277326,95,49.69,-83.67,35.52,3.94
459,kavieng,64,PG,1525277326,100,-2.57,150.8,83.04,3.38
460,mackay,75,CA,1525273200,52,53.65,-115.58,46.4,3.36
461,saint-pierre,0,FR,1525275000,48,48.95,4.24,62.6,10.29
462,ploemeur,75,FR,1525275000,58,47.73,-3.43,59.0,11.41
463,yangjiang,24,CN,1525277329,99,21.85,111.96,78.45,3.83
464,la ronge,20,CA,1525273200,65,55.1,-105.3,44.6,8.05
465,carutapera,80,BR,1525277329,100,-1.2,-46.02,78.27,5.95
466,manyana,0,AU,1525273200,87,-35.26,150.51,57.2,6.93
467,priiskovyy,0,RU,1525277330,60,51.93,116.63,37.68,6.85
468,auki,36,NG,1525277330,41,12.18,6.51,93.84,7.4
469,bouar,56,CF,1525277331,52,5.94,15.59,86.01,4.38
470,taiyuan,0,CN,1525275000,40,37.86,112.56,51.8,2.24
471,port-cartier,90,CA,1525274880,93,50.03,-66.88,39.2,6.93
472,ozinki,0,RU,1525277331,37,51.2,49.73,72.6,10.76
473,faanui,88,PF,1525277332,100,-16.48,-151.75,81.15,13.78
474,vila,90,IT,1525276200,87,45.18,8.4,57.2,8.05
475,henties bay,0,NA,1525277333,79,-22.12,14.28,71.16,8.75
476,mildura,0,AU,1525277334,67,-34.18,142.16,52.98,7.74
477,garmisch-partenkirchen,75,AT,1525276200,35,47.49,11.1,69.8,9.17
478,ambon,90,FR,1525275000,93,47.55,-2.56,55.4,11.41
479,morayfield,0,AU,1525275000,93,-27.11,152.95,60.8,6.93
480,sabang,80,PH,1525277335,100,13.72,123.58,78.27,4.61
481,bonavista,24,CA,1525277335,74,48.65,-53.11,47.67,16.35
482,rovnoye,0,RU,1525277335,27,50.78,46.06,74.58,7.74
483,jiuquan,0,CN,1525277336,43,39.73,98.49,45.15,3.83
484,fort nelson,75,CA,1525274940,75,58.81,-122.69,46.4,12.75
485,georgiyevka,0,RU,1525277336,52,52.25,40.45,75.3,5.28
486,alakurtti,76,RU,1525277336,63,66.96,30.34,35.52,8.52
487,chernyshevskiy,88,RU,1525277337,93,63.01,112.47,37.23,6.96
488,hambantota,20,LK,1525277061,96,6.12,81.12,85.92,12.21
489,kulhudhuffushi,76,MV,1525277337,100,6.62,73.07,85.47,15.23
490,marienburg,0,DE,1525274400,44,52.12,9.98,60.8,6.93
491,kimbe,20,PG,1525277338,100,-5.56,150.15,78.27,4.61
492,dukat,32,RS,1525277338,90,42.44,22.31,62.25,1.7
493,ilhabela,32,BR,1525277338,100,-23.78,-45.36,74.67,6.29
494,vangaindrano,100,MG,1525277338,81,-23.35,47.6,71.34,3.38
495,port macquarie,8,AU,1525273620,100,-31.43,152.91,51.8,5.73
496,tungor,0,RU,1525277339,72,53.39,142.95,18.24,3.15
497,la rioja,0,AR,1525277130,76,-29.41,-66.86,70.17,4.05
498,sinjar,32,SY,1525277340,71,35.59,37.0,77.91,4.05
499,russell,0,AR,1525273200,63,-33.01,-68.8,62.6,3.36
500,mahibadhoo,68,MV,1525277341,96,3.78,72.97,86.46,14.79
501,grindavik,40,IS,1525275000,56,63.84,-22.43,41.0,10.29
502,alofi,80,NU,1525273200,88,-19.06,-169.92,71.6,16.11
503,belyy yar,0,RU,1525275000,52,53.6,91.39,46.4,2.24
504,tecoanapa,75,MX,1525272600,66,16.99,-99.26,86.0,9.17
505,sioux lookout,75,CA,1525273200,93,50.1,-91.92,37.4,2.24
506,anadyr,75,RU,1525273200,92,64.73,177.51,17.6,8.95
507,cambridge,75,GB,1525275540,100,52.2,0.12,53.6,10.29
508,wanaka,48,NZ,1525277349,83,-44.7,169.14,29.04,2.04
509,sola,75,NO,1525274400,54,58.89,5.65,53.6,26.4
510,port hardy,90,CA,1525273200,87,50.7,-127.42,46.4,3.36
511,alice springs,68,AU,1525275000,26,-23.7,133.88,78.8,6.93
512,manggar,8,ID,1525277352,99,-2.88,108.27,78.18,3.49
513,pavilosta,0,LV,1525274400,76,56.89,21.19,50.0,10.29
514,diffa,0,NE,1525277355,14,13.32,12.61,110.31,4.72
515,beberibe,75,BR,1525273200,66,-4.18,-38.13,86.0,10.29
516,ust-nera,88,RU,1525277356,96,64.57,143.24,20.22,2.37
517,bosaso,68,SO,1525277356,93,11.28,49.18,85.29,12.21
518,ust-maya,32,RU,1525277357,67,60.42,134.54,36.78,6.62
519,tabuk,32,PH,1525277357,95,17.41,121.44,69.18,1.7
520,kasane,40,BW,1525273200,44,-17.8,25.16,78.8,3.36
521,husavik,8,CA,1525277357,93,50.56,-96.99,42.54,4.61
522,marawi,76,PH,1525277358,100,8.0,124.29,71.61,2.15
523,koumac,20,NC,1525277358,96,-20.56,164.28,68.82,7.63
524,worthington,1,US,1525275840,81,43.62,-95.6,53.6,10.29
525,nelson bay,40,AU,1525275000,100,-32.72,152.14,53.6,4.7
526,manaus,40,BR,1525273200,83,-3.13,-59.98,80.6,1.12
527,svetlogorsk,90,RU,1525275000,93,53.14,59.15,41.0,6.71
528,pskov,0,RU,1525273200,44,57.82,28.33,60.8,13.42
529,penon blanco,0,MX,1525277360,26,24.79,-104.04,69.99,4.94
530,istisu,0,AZ,1525277361,70,40.95,48.07,60.99,2.82
531,palmares do sul,0,BR,1525273200,73,-30.26,-50.51,75.2,9.17
532,severo-yeniseyskiy,0,RU,1525277362,63,60.37,93.04,27.06,3.94
533,parnera,0,IN,1525277363,64,20.55,72.95,81.06,8.3
534,oriximina,56,BR,1525277353,75,-1.77,-55.87,84.12,2.93
535,wanning,75,AT,1525276200,44,48.64,13.53,75.2,8.05
536,vila velha,75,BR,1525273200,66,-3.71,-38.6,86.0,10.29
537,jiayuguan,0,CN,1525277365,43,39.77,98.29,45.15,3.83
538,stokke,20,NO,1525274400,57,59.22,10.3,51.8,17.22
539,great yarmouth,75,GB,1525274400,87,52.61,1.73,50.0,10.29
540,ponta delgada,20,PT,1525275000,59,37.73,-25.67,64.4,17.22
541,kamenka,0,RU,1525277366,60,53.19,44.05,70.44,10.2
542,la crosse,75,US,1525275360,77,43.8,-91.24,62.6,6.93
543,lamu,68,ID,1525277366,99,0.57,122.3,75.75,1.92
544,adrar,0,DZ,1525276800,12,27.87,-0.29,82.4,6.93
545,guinayangan,8,PH,1525277367,91,13.9,122.45,79.44,7.4
546,ornskoldsvik,75,SE,1525274400,100,63.29,18.72,44.6,3.36
547,vanavara,92,RU,1525277367,100,60.35,102.28,36.96,7.4
548,turbat,0,PK,1525277368,12,26.0,63.05,98.07,8.63
549,dunkirk,75,FR,1525274700,81,51.03,2.38,55.4,17.22
550,qianguo,20,CN,1525277368,35,45.12,124.86,48.57,10.87
551,rio cauto,40,CU,1525272660,58,20.56,-76.92,84.2,8.05
552,honningsvag,0,NO,1525272600,56,70.98,25.97,41.0,11.41
553,batagay-alyta,0,RU,1525277369,83,67.8,130.41,31.11,7.96
554,broome,75,GB,1525275540,87,52.47,1.45,53.6,10.29
555,duyun,92,CN,1525277370,97,26.27,107.52,60.9,2.93
556,ahuimanu,90,US,1525275480,94,21.44,-157.84,71.6,2.26
557,ambunti,44,PG,1525277370,100,-4.22,142.82,76.2,2.04
558,staryy nadym,44,RU,1525277370,83,65.61,72.68,13.47,11.21
559,quthing,68,LS,1525277371,64,-30.4,27.7,57.12,4.61
560,mombasa,75,KE,1525273200,94,-4.05,39.67,77.0,11.41
561,sokoni,68,CD,1525277371,87,-12.89,28.78,68.1,6.73
562,ugoofaaru,48,MV,1525277372,99,5.67,73.0,85.47,13.67
563,sereflikochisar,8,TR,1525277373,46,38.94,33.54,72.42,4.83
564,hida,100,JP,1525277373,98,36.24,137.19,55.59,5.84
565,nsukka,8,NG,1525277375,74,6.86,7.39,87.45,6.73
566,galesong,20,ID,1525275000,94,-5.32,119.37,78.8,2.24
567,haines junction,0,CA,1525277193,69,60.75,-137.51,23.64,2.26
568,palu,56,ID,1525277383,96,-0.9,119.87,66.3,1.48
